[{"name": "Teatr Ochoty", "latitude": "52.217160", "longitude": "20.989056", "address": "M. Reja", "district": "Ochota"}, {"name": "Stowarzyszenie Unia Teatr Niemo\u017cliwy", "latitude": "52.249626", "longitude": "21.013890", "address": "Jezuicka", "district": "\u015ar\u00f3dmie\u015bcie"}, {"name": "Teatr Lalka-teatr dla dzieci", "latitude": "52.232939", "longitude": "21.006499", "address": "Plac Defilad", "district": "\u015ar\u00f3dmie\u015bcie"}, {"name": "Teatr Studio Buffo", "latitude": "52.228132", "longitude": "21.026226", "address": "M. Konopnickiej", "district": "\u015ar\u00f3dmie\u015bcie"}, {"name": "Teatr Baza", "latitude": "52.208906", "longitude": "21.044214", "address": "Podchor\u0105\u017cych", "district": "Mokot\u00f3w"}, {"name": "Stara Prochoffnia", "latitude": "52.252101", "longitude": "21.012082", "address": "Bole\u015b\u0107", "district": "\u015ar\u00f3dmie\u015bcie"}, {"name": "Teatr Scena Wsp\u00f3\u0142czesna", "latitude": "52.249527", "longitude": "21.013643", "address": "Jezuicka", "district": "\u015ar\u00f3dmie\u015bcie"}, {"name": "Teatr Powszechny im. Zugmunta Hubnera", "latitude": "52.247221", "longitude": "21.048365", "address": "Hetmana J. Zamoyskiego", "district": "Praga-P\u00f3\u0142noc"}, {"name": "Teatr Kamienica", "latitude": "52.243218", "longitude": "20.998488", "address": "Aleja Solidarno\u015bci", "district": "\u015ar\u00f3dmie\u015bcie"}, {"name": "Teatr Wsp\u00f3\u0142czesny", "latitude": "52.219009", "longitude": "21.017136", "address": "Mokotowska", "district": "\u015ar\u00f3dmie\u015bcie"}, {"name": "Teatr Narodowy", "latitude": "52.243534", "longitude": "21.009558", "address": "Plac Teatralny", "district": "\u015ar\u00f3dmie\u015bcie"}, {"name": "Teatr \u017bydowski im. Estery Rachel i Idy Kami\u0144skich", "latitude": "52.235819", "longitude": "21.002296", "address": "Grzybowski", "district": "\u015ar\u00f3dmie\u015bcie"}, {"name": "Och-Teatr", "latitude": "52.214178", "longitude": "20.980141", "address": "Gr\u00f3jecka", "district": "Ochota"}, {"name": "TR Warszawa ATM Studio", "latitude": "52.191698", "longitude": "21.123965", "address": "Wa\u0142 Miedzeszy\u0144ski", "district": "Warszawa"}, {"name": "Teatr Wielki - Opera Narodowa", "latitude": "52.243790", "longitude": "21.010115", "address": "Plac Teatralny", "district": "\u015ar\u00f3dmie\u015bcie"}, {"name": "Teatr Rampa", "latitude": "52.272665", "longitude": "21.049520", "address": "Ko\u0142owa", "district": "Targ\u00f3wek"}, {"name": "Teatr M\u0142yn - Warszawska Niezale\u017cna Scena Spo\u0142eczna", "latitude": "52.249585", "longitude": "21.013586", "address": "Jezuicka", "district": "\u015ar\u00f3dmie\u015bcie"}, {"name": "Teatr Polonia", "latitude": "52.223709", "longitude": "21.015937", "address": "Marsza\u0142kowska", "district": "\u015ar\u00f3dmie\u015bcie"}, {"name": "Teatr Capitol", "latitude": "52.241417", "longitude": "21.002759", "address": "Marsza\u0142kowska", "district": "\u015ar\u00f3dmie\u015bcie"}, {"name": "Teatr Adekwatny", "latitude": "52.250602", "longitude": "21.012512", "address": "Brzozowa", "district": "\u015ar\u00f3dmie\u015bcie"}, {"name": "Collegium Nobilium", "latitude": "52.248264", "longitude": "21.007629", "address": "Miodowa", "district": "\u015ar\u00f3dmie\u015bcie"}, {"name": "Teatr Kwadrat", "latitude": "52.236076", "longitude": "21.008605", "address": "Marsza\u0142kowska", "district": "\u015ar\u00f3dmie\u015bcie"}, {"name": "Scena Lubelska 30/32", "latitude": "52.250047", "longitude": "21.050863", "address": "Lubelska", "district": "Praga-Po\u0142udnie"}, {"name": "Teatr Komedia", "latitude": "52.269160", "longitude": "20.978556", "address": "J. S\u0142owackiego", "district": "\u017boliborz"}, {"name": "TR Warszawa", "latitude": "52.214964", "longitude": "21.021143", "address": "Marsza\u0142kowska", "district": "\u015ar\u00f3dmie\u015bcie"}, {"name": "Teatr Nowy", "latitude": "52.205158", "longitude": "21.019427", "address": "A. J. Madali\u0144skiego", "district": "Mokot\u00f3w"}, {"name": "Teatr Na Woli im. Tadeusza \u0141omnickiego", "latitude": "52.229126", "longitude": "20.970449", "address": "Kasprzaka", "district": "Wola"}, {"name": "Teatr Montownia", "latitude": "52.241938", "longitude": "21.015127", "address": "Krakowskie Przedmie\u015bcie", "district": "\u015ar\u00f3dmie\u015bcie"}, {"name": "Teatr 6. pi\u0119tro", "latitude": "52.231881", "longitude": "21.006525", "address": "Plac Defilad", "district": "\u015ar\u00f3dmie\u015bcie"}, {"name": "Teatr Ateneum im. Stefana Jaracza", "latitude": "52.237250", "longitude": "21.032865", "address": "S. Jaracza", "district": "\u015ar\u00f3dmie\u015bcie"}, {"name": "Teatr Muzyczny Roma", "latitude": "52.227584", "longitude": "21.007684", "address": "Nowogrodzka", "district": "\u015ar\u00f3dmie\u015bcie"}, {"name": "Teatr Polski", "latitude": "52.238494", "longitude": "21.019690", "address": "K. Karasia", "district": "\u015ar\u00f3dmie\u015bcie"}, {"name": "Teatr Baj", "latitude": "52.252349", "longitude": "21.034590", "address": "Jagiello\u0144ska", "district": "Praga-P\u00f3\u0142noc"}, {"name": "Teatr Dramatyczny", "latitude": "52.231361", "longitude": "21.007458", "address": "Plac Defilad", "district": "\u015ar\u00f3dmie\u015bcie"}, {"name": "Teatr Druga Strefa", "latitude": "52.186490", "longitude": "21.005098", "address": "Magazynowa", "district": "Mokot\u00f3w"}, {"name": "Instytut Teatralny im. Zbigniewa Raszewskiego", "latitude": "52.218881", "longitude": "21.028140", "address": "Jazd\u00f3w", "district": "\u015ar\u00f3dmie\u015bcie"}, {"name": "Teatr Palladium", "latitude": "52.232701", "longitude": "21.011484", "address": "Z\u0142ota", "district": "\u015ar\u00f3dmie\u015bcie"}, {"name": "Teatr Syrena", "latitude": "52.216505", "longitude": "21.022159", "address": "Litewska", "district": "\u015ar\u00f3dmie\u015bcie"}, {"name": "Mazowieckie Centrum Kultury i Sztuki", "latitude": "52.240616", "longitude": "20.998012", "address": "Elektoralna", "district": "\u015ar\u00f3dmie\u015bcie"}, {"name": "Teatr IMKA", "latitude": "52.227977", "longitude": "21.026202", "address": "M. Konopnickiej", "district": "\u015ar\u00f3dmie\u015bcie"}, {"name": "Teatr Scena Prezentacje", "latitude": "52.232680", "longitude": "20.991759", "address": "\u017belazna", "district": "Wola"}, {"name": "Teatr WARSawy", "latitude": "52.252501", "longitude": "21.008513", "address": "Rynek Nowego Miasta ", "district": "\u015ar\u00f3dmie\u015bcie"}, {"name": "Teatr Guliwer", "latitude": "52.203253", "longitude": "21.019821", "address": "Ro\u017cana", "district": "Mokot\u00f3w"}, {"name": "Warszawska Opera Kameralna", "latitude": "52.243982", "longitude": "20.997397", "address": "Aleja Solidarno\u015bci", "district": "\u015ar\u00f3dmie\u015bcie"}, {"name": "Mazowiecki Teatr Muzyczny - Operetka im. Jana Kiepury", "latitude": "52.276219", "longitude": "20.947863", "address": "S. \u017beromskiego", "district": "Bielany"}, {"name": "Teatr Sabat Ma\u0142gorzaty Potockiej", "latitude": "52.233820", "longitude": "21.020801", "address": "Foksal", "district": "\u015ar\u00f3dmie\u015bcie"}, {"name": "Teatr Studio im. Stanis\u0142awa Ignacego Witkiewicza", "latitude": "52.232619", "longitude": "21.006693", "address": "Plac Defilad", "district": "\u015ar\u00f3dmie\u015bcie"}, {"name": "Scena Przodownik", "latitude": "52.204135", "longitude": "21.019303", "address": "Olesi\u0144ska", "district": "Mokot\u00f3w"}]